City_ID,City,Lat,Lng,Max Temp,Humidity,Cloudiness,Wind Speed,Country,Date
0,vrontados,38.4089,26.1328,286.39,74,75,1.9,GR,1702253990
1,margaret river,-33.95,115.0667,292.56,35,0,4.9,AU,1702253991
2,bethel,41.3712,-73.414,288.27,89,100,3.6,US,1702253856
3,papatowai,-46.5619,169.4708,289.61,46,41,4.67,NZ,1702253994
4,lambarene,-0.7001,10.2406,297.59,94,98,0.9,GA,1702253995
5,adamstown,-25.066,-130.1015,294.41,58,0,3.53,PN,1702253819
6,hamilton,39.1834,-84.5333,275.12,81,100,6.69,US,1702253952
7,oyem,1.5995,11.5793,294.1,98,100,1.21,GA,1702253999
8,longyearbyen,78.2186,15.6401,273.06,74,75,7.72,SJ,1702254001
9,port-aux-francais,-49.35,70.2167,277.03,79,70,9.99,TF,1702253819
10,sitangkai,4.6628,119.3928,300.88,78,86,2.52,PH,1702254004
11,stanley,54.868,-1.6985,279.1,92,94,5.3,GB,1702254006
12,jamestown,42.097,-79.2353,276.23,86,100,2.57,US,1702254007
13,st. john's,47.5649,-52.7093,272.02,91,0,3.6,CA,1702254008
14,blackmans bay,-43.0167,147.3167,294.55,51,74,1.34,AU,1702253830
15,el galpon,-25.3807,-64.6526,295.03,75,97,1.17,AR,1702254011
16,grytviken,-54.2811,-36.5092,278.57,92,100,6.87,GS,1702254012
17,isafjordur,66.0755,-23.124,269.84,93,100,2.79,IS,1702254013
18,choma,-16.8065,26.9531,294.13,73,100,3.87,ZM,1702254014
19,veraval,20.9,70.3667,295.04,51,7,4.11,IN,1702254016
20,puerto natales,-51.7236,-72.4875,280.58,82,77,2.52,CL,1702254017
21,blenheim,-41.516,173.9528,296.22,45,0,1.79,NZ,1702254019
22,onega,63.9061,38.1404,259.9,91,100,4.93,RU,1702254020
23,waitangi,-43.9535,-176.5597,284.72,58,3,2.0,NZ,1702253824
24,hawaiian paradise park,19.5933,-154.9731,299.28,93,100,4.63,US,1702253836
25,tataouine,32.9297,10.4518,285.26,52,0,6.96,TN,1702254025
26,lihue,21.9789,-159.3672,299.92,76,20,4.12,US,1702254026
27,nar'yan-mar,67.6713,53.087,250.43,91,99,4.92,RU,1702254028
28,puerto baquerizo moreno,-0.9,-89.6,297.18,86,30,5.01,EC,1702254030
29,bredasdorp,-34.5322,20.0403,288.6,81,0,1.51,ZA,1702254031
30,touros,-5.1989,-35.4608,300.74,61,52,4.99,BR,1702253872
31,lospalos,-8.5186,127.0025,300.59,69,100,0.98,TL,1702254035
32,tura,25.5198,90.2201,286.95,59,0,1.59,IN,1702253828
33,isangel,-19.55,169.2667,302.21,58,75,3.09,VU,1702254037
34,debeljaca,45.0711,20.6,275.26,94,97,1.47,RS,1702254040
35,spalding,33.2668,-84.2833,280.31,92,100,4.63,US,1702254042
36,puerto san jose,13.9256,-90.8244,300.36,73,4,2.25,GT,1702254043
37,kinablangan,7.6947,126.5503,300.31,78,79,2.14,PH,1702254044
38,tejen,37.3834,60.5054,284.21,44,62,2.63,TM,1702254046
39,el calafate,-50.3408,-72.2768,283.91,68,91,3.19,AR,1702254047
40,codrington,-38.2667,141.9667,290.25,77,100,8.04,AU,1702254050
41,zhuanghe,39.7008,122.9911,269.99,32,100,5.24,CN,1702254051
42,alappuzha,9.49,76.3264,299.42,83,50,1.74,IN,1702254052
43,zelenogorskiy,55.0333,87.0,242.91,98,44,0.68,RU,1702254054
44,abepura,-2.6333,140.5833,303.6,66,20,4.63,ID,1702253883
45,freeport,40.6576,-73.5832,289.83,92,100,10.8,US,1702254056
46,afaahiti,-17.75,-149.2833,303.08,82,83,11.07,PF,1702254057
47,yoloten,37.2989,62.3597,283.56,44,61,3.36,TM,1702254058
48,bilibino,68.0546,166.4372,247.01,98,41,2.09,RU,1702254060
49,pizarro,4.9533,-77.366,299.4,91,100,2.57,CO,1702254027
50,zambezi,-13.5432,23.1047,293.53,85,100,1.27,ZM,1702254062
51,padang,-0.9492,100.3543,299.18,88,51,0.76,ID,1702254064
52,nabire,-3.3667,135.4833,302.02,71,100,0.17,ID,1702254065
53,ahraura,25.0167,83.0167,287.98,50,0,1.61,IN,1702254066
54,iqaluit,63.7506,-68.5145,269.0,79,100,6.71,CA,1702253827
55,falconara marittima,43.6233,13.4031,282.46,89,75,2.06,IT,1702254069
56,edinburgh of the seven seas,-37.0676,-12.3116,286.8,70,93,7.95,SH,1702253833
57,al hoceima,35.2433,-3.9309,286.72,62,0,1.54,MA,1702254072
58,avarua,-21.2078,-159.775,299.18,83,100,11.83,CK,1702254073
59,allegan,42.5292,-85.8553,274.94,93,100,0.89,US,1702254020
60,zell am see,47.3256,12.7944,277.14,49,92,4.21,AT,1702254076
61,mount pearl,47.5166,-52.7813,271.56,91,0,3.6,CA,1702254078
62,kolonia,50.9333,6.95,284.75,78,75,5.14,DE,1702254000
63,ofunato,39.0717,141.7167,279.71,55,80,3.87,JP,1702254080
64,invercargill,-46.4,168.35,289.55,47,60,6.73,NZ,1702253842
65,ginir,7.1333,40.7,286.17,51,2,1.41,ET,1702254084
66,susuman,62.7833,148.1667,250.92,99,94,2.68,RU,1702254085
67,chonchi,-42.6128,-73.8092,288.22,82,99,1.36,CL,1702253836
68,tolanaro,-25.0319,46.9987,298.19,94,20,7.2,MG,1702254088
69,college,64.8569,-147.8028,248.4,69,75,1.54,US,1702253993
70,kangding,30.0513,101.9603,277.41,87,80,1.67,CN,1702254091
71,albany,42.6001,-73.9662,281.38,90,100,2.68,US,1702253858
72,falkenberg,56.9055,12.4912,276.07,100,100,6.07,SE,1702254094
73,belabo,4.9333,13.3,295.07,72,100,0.85,CM,1702254095
74,whakatane,-37.9585,176.9854,292.53,86,99,0.45,NZ,1702254096
75,balqash,46.8481,74.995,263.81,49,100,3.95,KZ,1702254098
76,utrik,11.2278,169.8474,300.28,78,71,8.78,MH,1702254099
77,bereznik,62.8551,42.7072,258.46,92,100,5.23,RU,1702254100
78,olonkinbyen,70.9221,-8.7187,269.02,60,63,3.81,SJ,1702253862
79,shimokizukuri,40.8061,140.3861,277.33,60,97,4.96,JP,1702254103
80,inhambane,-23.865,35.3833,298.84,93,62,4.5,MZ,1702253877
81,lavrio,37.7145,24.0565,287.25,74,99,2.69,GR,1702254106
82,port mathurin,-19.6833,63.4167,299.17,76,84,3.83,MU,1702254107
83,yerofey pavlovich,53.9667,121.9667,240.92,94,11,1.37,RU,1702254109
84,new yekepa,7.5794,-8.5378,293.74,38,64,0.53,LR,1702254110
85,kodiak,57.79,-152.4072,278.88,87,100,8.75,US,1702254112
86,haiku-pauwela,20.9219,-156.3051,304.16,57,40,7.2,US,1702254099
87,anadyr,64.75,177.4833,247.59,75,20,5.0,RU,1702253826
88,arraial do cabo,-22.9661,-42.0278,296.36,78,100,3.33,BR,1702253839
89,newman,37.3138,-121.0208,289.28,59,100,1.34,US,1702254117
90,saipan,15.1355,145.701,302.54,74,20,6.17,MP,1702254118
91,aripuana,-9.1667,-60.6333,297.94,88,94,0.93,BR,1702254120
92,yellowknife,62.456,-114.3525,260.44,92,100,9.26,CA,1702254121
93,uturoa,-16.7333,-151.4333,300.2,80,35,9.97,PF,1702254123
94,belyy yar,53.6039,91.3903,240.09,75,79,0.0,RU,1702254124
95,whitehorse,60.7161,-135.0538,259.58,83,100,1.54,CA,1702253982
96,pisco,-13.7,-76.2167,294.18,78,0,6.17,PE,1702253894
97,mar del plata,-38.0023,-57.5575,293.76,89,0,3.09,AR,1702254128
98,axim,4.8699,-2.2405,299.59,84,43,3.06,GH,1702254131
99,artvin,41.1667,41.8333,279.88,85,70,2.19,TR,1702254134
100,tazovsky,67.4667,78.7,247.47,97,100,4.56,RU,1702254136
101,chernomorskoye,45.5039,32.6997,279.46,87,100,1.05,UA,1702254137
102,la ronge,55.1001,-105.2842,269.29,74,100,3.6,CA,1702254139
103,kourou,5.1552,-52.6478,300.18,89,20,2.63,GF,1702254140
104,portage,41.1667,-81.1998,275.74,77,100,2.57,US,1702254142
105,lichinga,-13.3128,35.2406,292.2,94,0,4.63,MZ,1702254143
106,ilulissat,69.2167,-51.1,271.16,74,100,6.17,GL,1702254101
107,tekkali,18.6167,84.2333,293.01,81,6,2.27,IN,1702254148
108,klyuchi,52.2667,79.1667,251.55,88,19,2.63,RU,1702253874
109,motygino,58.1831,94.7592,237.47,99,27,1.79,RU,1702254151
110,ushuaia,-54.8,-68.3,280.96,49,0,5.66,AR,1702254152
111,hermanus,-34.4187,19.2345,289.4,81,0,4.21,ZA,1702254154
112,ust-nera,64.5667,143.2,253.13,98,100,4.09,RU,1702254064
113,mount gambier,-37.8333,140.7667,288.77,93,100,5.77,AU,1702253982
114,qaqortoq,60.7167,-46.0333,263.37,75,65,2.39,GL,1702254158
115,vorgashor,67.5833,63.95,248.38,100,100,3.39,RU,1702254159
116,ribeira grande,38.5167,-28.7,290.8,75,63,8.94,PT,1702254160
117,manta,-0.95,-80.7333,300.03,69,40,5.14,EC,1702254162
118,qamdo,31.1667,97.2333,262.69,73,5,2.1,CN,1702254163
119,hadibu,12.65,54.0333,297.51,72,26,4.85,YE,1702254113
120,taulaga,-11.0553,-171.0883,301.41,78,100,6.82,AS,1702254166
121,petropavlovsk-kamchatsky,53.0452,158.6483,273.48,95,100,6.71,RU,1702254167
122,wailua homesteads,22.0669,-159.378,299.59,76,20,4.12,US,1702254169
123,achinsk,56.2694,90.4993,236.59,100,36,1.34,RU,1702254170
124,ribeira brava,32.65,-17.0667,294.1,83,72,1.21,PT,1702254172
125,lobito,-12.3481,13.5456,299.2,84,94,1.99,AO,1702254173
126,ha'il,27.5219,41.6907,288.16,41,0,2.06,SA,1702253976
127,linxia chengguanzhen,35.6003,103.2064,271.49,60,81,0.39,CN,1702254175
128,sitka,57.0531,-135.33,277.09,81,75,3.6,US,1702254168
129,vilyuchinsk,52.9306,158.4028,274.3,97,100,1.75,RU,1702254101
130,coronel dorrego,-38.7187,-61.2873,295.56,27,10,6.5,AR,1702254179
131,howrah,22.5892,88.3103,288.15,88,0,0.0,IN,1702254181
132,mutsu,41.2894,141.2169,275.44,62,89,6.58,JP,1702254182
133,kelibia,36.8476,11.0939,291.29,82,20,4.12,TN,1702254183
134,happy valley-goose bay,53.3168,-60.3315,276.32,65,100,7.2,CA,1702254184
135,chibougamau,49.9168,-74.3659,269.94,93,100,3.09,CA,1702254186
136,san antonio de pale,-1.4014,5.6325,300.58,79,100,5.64,GQ,1702254187
137,madang,-5.2246,145.7966,302.73,68,73,4.4,PG,1702254188
138,thompson,55.7435,-97.8558,257.24,92,100,2.06,CA,1702253897
139,yemva,62.59,50.8594,250.07,96,100,3.02,RU,1702254191
140,la'ie,21.6477,-157.9253,302.81,71,14,2.24,US,1702254105
141,bandiagara,14.3501,-3.6104,295.3,15,10,3.67,ML,1702254194
142,balabac,7.9868,117.0645,301.21,78,73,6.14,PH,1702254195
143,kulhudhuffushi,6.6221,73.07,301.22,78,68,5.02,MV,1702254196
144,salinopolis,-0.6136,-47.3561,300.14,81,29,5.21,BR,1702254198
145,abadan,30.3392,48.3043,288.12,88,100,1.03,IR,1702254199
146,ancud,-41.8697,-73.8203,286.27,83,96,2.92,CL,1702254128
147,dasha,23.11,113.4444,295.14,86,4,0.93,CN,1702254202
148,port lincoln,-34.7333,135.8667,290.23,94,100,7.25,AU,1702254203
149,barcelos,41.5388,-8.6151,290.23,93,100,3.64,PT,1702254205
150,port shepstone,-30.7414,30.455,292.36,83,100,3.11,ZA,1702254206
151,fort bragg,35.139,-79.006,292.49,93,100,3.6,US,1702254207
152,qui nhon,13.7667,109.2333,296.14,85,38,1.93,VN,1702254209
153,tabuk,17.4189,121.4443,298.19,77,26,0.82,PH,1702254210
154,keflavik,64.0049,-22.5624,274.39,100,100,4.63,IS,1702254211
155,hotan,37.0997,79.9269,273.18,35,72,3.54,CN,1702254180
156,shumikha,55.2261,63.2961,242.97,95,21,3.82,RU,1702254214
157,yunyang,33.4474,112.7142,271.31,91,98,5.71,CN,1702254215
158,biga,40.2281,27.2422,282.07,91,82,1.14,TR,1702254217
159,aasiaat,68.7098,-52.8699,269.07,92,100,6.49,GL,1702254218
160,tiksi,71.6872,128.8694,247.88,100,100,2.11,RU,1702254219
161,rabigh,22.7986,39.0349,299.71,59,99,0.82,SA,1702254221
162,porto velho,-8.7619,-63.9039,300.18,89,20,0.0,BR,1702254222
163,crane,31.3974,-102.3501,282.56,23,2,2.27,US,1702254223
164,praia,14.9215,-23.5087,297.45,73,20,5.14,CV,1702254226
165,puerto ayora,-0.7393,-90.3518,297.37,86,48,3.56,EC,1702254227
166,durres,41.3231,19.4414,276.25,72,70,4.27,AL,1702254228
167,inarajan village,13.2736,144.7484,303.23,83,79,6.8,GU,1702254230
168,fontaine-les-dijon,47.3424,5.0201,281.71,93,100,4.63,FR,1702254231
169,brookings,44.3114,-96.7984,270.15,85,0,1.54,US,1702253945
170,new norfolk,-42.7826,147.0587,294.66,30,92,1.11,AU,1702254234
171,annandale,38.8304,-77.1964,285.43,89,100,9.26,US,1702254235
172,wotho,10.1657,166.0102,300.18,80,98,8.1,MH,1702254236
173,udachny,66.4167,112.4,243.95,82,100,5.54,RU,1702254238
174,kruisfontein,-34.0033,24.7314,286.42,92,3,1.33,ZA,1702254239
175,tralee,52.2704,-9.7026,282.5,88,58,6.69,IE,1702254240
176,carnarvon,-24.8667,113.6333,301.09,23,0,9.8,AU,1702254242
177,atafu village,-8.5421,-172.5159,301.94,75,93,5.79,TK,1702254243
178,talnakh,69.4865,88.3972,247.15,99,100,4.22,RU,1702254244
179,ujae,8.9322,165.7642,300.76,78,100,7.66,MH,1702254246
180,marsabit,2.3284,37.9899,293.73,61,41,5.48,KE,1702254247
181,saint-philippe,-21.3585,55.7679,296.92,85,79,5.06,RE,1702254248
182,constantia,44.1833,28.65,273.54,85,50,4.18,RO,1702254250
183,broome,42.2506,-75.833,279.1,95,100,5.14,US,1702254251
184,punta arenas,-53.15,-70.9167,282.21,61,0,3.09,CL,1702254195
185,west island,-12.1568,96.8225,299.14,78,40,4.63,CC,1702254254
186,marquette,46.5333,-87.6335,269.72,82,88,3.58,US,1702254256
187,bei'an,24.5399,109.533,294.55,87,90,0.69,CN,1702254258
188,remire-montjoly,4.9167,-52.2667,300.17,83,20,1.03,GF,1702254105
189,suomussalmi,64.8869,28.9078,259.58,96,99,2.72,FI,1702254262
190,el tigre,8.8875,-64.2454,299.46,68,68,4.13,VE,1702254263
191,kingston,17.997,-76.7936,299.95,84,8,2.07,JM,1702253533
192,palikir - national government center,6.9248,158.1611,304.62,66,100,4.12,FM,1702254266
193,vodnyy,63.5046,53.4095,242.27,98,100,2.03,RU,1702254267
194,tobelo,1.7284,128.0095,301.27,77,62,1.14,ID,1702254269
195,porto franco,-6.3383,-47.3992,296.77,93,98,0.61,BR,1702254270
196,queenstown,-31.8976,26.8753,284.44,91,100,1.23,ZA,1702254271
197,sur,22.5667,59.5289,295.59,55,10,1.28,OM,1702254272
198,brokopondo,4.75,-55.1667,299.7,81,94,3.37,SR,1702254274
199,parun,35.4207,70.9221,268.92,20,49,4.15,AF,1702254276
200,quellon,-43.1167,-73.6167,286.32,83,99,2.42,CL,1702254277
201,kivertsi,50.8343,25.4582,272.12,96,100,4.66,UA,1702254278
202,namibe,-15.1961,12.1522,295.3,78,68,3.21,AO,1702254280
203,boa vista,2.8197,-60.6733,303.14,58,40,3.6,BR,1702254281
204,mount vernon,40.9126,-73.8371,290.08,92,100,7.72,US,1702254282
205,taro,-8.3862,115.28,298.15,82,98,1.5,ID,1702254284
206,usogorsk,63.4106,48.6872,252.41,93,100,4.12,RU,1702254285
207,fonte boa,-2.4959,-66.2662,299.93,78,100,0.42,BR,1702254286
208,hithadhoo,-0.6,73.0833,300.92,76,92,2.42,MV,1702254287
209,nadym,65.5333,72.5167,241.71,94,80,3.89,RU,1702254289
210,lata,40.1629,-8.3327,288.75,92,47,1.86,PT,1702254290
211,taksimo,56.3444,114.8794,239.99,91,45,0.6,RU,1702254291
212,flin flon,54.7682,-101.865,264.06,92,100,4.63,CA,1702254292
213,rio grande,-32.035,-52.0986,293.21,87,91,7.8,BR,1702254209
214,tvoroyri,61.5556,-6.8111,281.18,82,100,7.97,FO,1702254296
215,puerto aysen,-45.4,-72.7,285.18,99,100,2.1,CL,1702254298
216,asosa,10.0667,34.5333,291.3,34,21,2.28,ET,1702254299
217,bam,29.106,58.357,285.55,23,13,0.89,IR,1702254300
218,zavodskoy,43.4597,132.2922,258.92,39,35,5.0,RU,1702254302
219,kavieng,-2.5744,150.7967,301.99,75,82,4.16,PG,1702254303
220,luanda,-8.8368,13.2343,297.15,82,100,1.54,AO,1702254305
221,mpanda,-6.3655,31.0409,292.7,97,100,0.73,TZ,1702254306
222,bernal,-5.45,-80.75,298.44,59,0,8.4,PE,1702254308
223,orange,33.7,-117.7675,298.31,27,40,3.09,US,1702254309
224,artova,40.1158,36.3001,277.7,82,95,2.96,TR,1702254311
225,palmer,42.1584,-72.3287,288.9,83,100,1.34,US,1702254205
226,kasongo,-4.45,26.6667,293.88,98,100,0.5,CD,1702254314
227,colonia,50.9333,6.95,284.85,78,75,5.14,DE,1702254267
228,port macquarie,-31.4333,152.9167,301.98,56,1,6.2,AU,1702254316
229,calca,-13.3333,-71.95,286.79,79,96,2.47,PE,1702254318
230,lebu,-37.6167,-73.65,286.09,89,92,8.85,CL,1702254319
231,rio verde,21.9333,-99.9833,285.23,45,80,4.58,MX,1702254321
232,georgetown,5.4112,100.3354,300.11,94,20,1.03,MY,1702254137
233,caninde de sao francisco,-9.66,-37.7894,299.28,59,13,4.93,BR,1702254324
234,fortuna,40.5982,-124.1573,287.58,78,100,0.0,US,1702254325
235,antsiranana,-12.2787,49.2917,298.69,85,75,5.62,MG,1702254327
236,tuy hoa,13.0833,109.3,296.04,88,59,1.91,VN,1702254329
237,san patricio,28.017,-97.5169,288.07,25,0,2.59,US,1702254330
238,dalhart,36.0595,-102.5133,278.36,48,0,3.09,US,1702254331
239,taoudenni,22.6783,-3.9836,291.32,24,100,7.78,ML,1702254333
240,kokopo,-4.352,152.2633,298.85,85,100,1.64,PG,1702254334
241,port saint john's,-31.6229,29.5448,291.19,86,100,1.34,ZA,1702254336
242,tual,-5.6667,132.75,302.02,77,90,6.43,ID,1702254337
243,ghat,24.9647,10.1728,286.73,62,89,3.74,LY,1702254338
244,meizhou,24.2977,116.1072,295.2,88,19,0.36,CN,1702254340
245,port elizabeth,-33.918,25.5701,287.65,92,0,1.54,ZA,1702254341
246,olinda,-8.0089,-34.8553,301.0,74,40,2.57,BR,1702254116
247,esquel,-42.9,-71.3167,289.66,67,82,2.81,AR,1702254343
248,el rama,12.1596,-84.2195,297.41,98,58,1.9,NI,1702254345
249,i-n-salah,27.1935,2.4607,287.16,54,7,5.38,DZ,1702254346
250,laguna,38.421,-121.4238,287.64,58,0,1.54,US,1702254347
251,magherafelt,54.7536,-6.6066,280.7,94,93,2.37,GB,1702254348
252,serdar,38.9764,56.2757,285.38,52,73,2.0,TM,1702254350
253,cadale,2.7603,46.3222,300.08,79,26,5.49,SO,1702254351
254,khandyga,62.6667,135.6,239.69,98,100,0.87,RU,1702254352
255,yebaishou,41.3975,119.6408,262.69,55,100,4.15,CN,1702254354
256,lillehammer,61.1146,10.4674,266.73,97,100,1.05,NO,1702254355
257,nuuk,64.1835,-51.7216,271.49,74,100,6.69,GL,1702254120
258,hobyo,5.3505,48.5268,299.84,78,35,8.09,SO,1702254358
259,bardai,11.65,7.2333,290.67,29,27,4.71,NG,1702254359
260,severo-yeniseyskiy,60.3725,93.0408,234.58,100,79,0.45,RU,1702254096
261,khash,28.2211,61.2158,283.1,28,1,0.85,IR,1702254361
262,kisanga,-7.4362,37.7034,296.19,96,98,0.7,TZ,1702254362
263,saint-francois,46.4154,3.9054,286.84,84,100,2.57,FR,1702254364
264,kumagunnam,13.1551,10.6342,291.64,26,95,5.36,NG,1702254365
265,cholpon-ata,42.6494,77.0823,273.18,42,100,1.83,KG,1702254366
266,anna regina,7.2644,-58.5077,298.93,84,4,2.88,GY,1702254367
267,nagato,34.3833,131.2,288.62,77,94,5.68,JP,1702254369
268,tulsipur,28.131,82.2973,284.27,70,0,2.09,NP,1702254370
269,minehead,51.2057,-3.4788,285.45,77,36,2.24,GB,1702254371
270,wanning,18.8003,110.3967,296.21,89,84,1.03,CN,1702254373
271,alofi,-19.0595,-169.9187,298.09,94,100,5.66,NU,1702254374
272,bikenibeu village,1.3673,173.1241,302.13,84,100,3.09,KI,1702254375
273,okhotsk,59.3833,143.3,266.48,94,100,1.9,RU,1702254378
274,stonehaven,56.9637,-2.2118,279.44,99,100,4.62,GB,1702254379
275,dudinka,69.4058,86.1778,247.38,97,100,5.36,RU,1702254123
276,dubbo,-32.25,148.6167,304.22,37,60,4.12,AU,1702254382
277,wismar,53.9,11.4667,279.4,97,100,1.34,DE,1702254383
278,tynda,55.1667,124.7167,235.82,96,13,1.87,RU,1702254384
279,mpika,-11.8343,31.4529,290.92,88,94,2.1,ZM,1702254385
280,sinabang,2.4803,96.3801,298.25,90,100,1.18,ID,1702254387
281,asha,54.9973,57.2722,247.14,96,14,2.68,RU,1702254388
282,majene,-3.5403,118.9707,301.33,76,100,1.44,ID,1702254389
283,enewetak,11.3474,162.3373,300.86,77,94,8.04,MH,1702254390
284,laurentides,46.4334,-74.9826,273.55,96,100,1.65,CA,1702254392
285,likasi,-10.9814,26.7333,291.13,95,100,1.33,CD,1702254393
286,revda,56.801,59.9303,239.62,100,98,1.35,RU,1702254154
287,kununurra,-15.7667,128.7333,302.14,45,56,5.66,AU,1702254395
288,zhanaozen,43.3,52.8,270.19,93,100,6.35,KZ,1702254397
289,al markaz,25.4,49.7333,288.48,21,95,2.08,SA,1702254398
290,mikuni,36.2171,136.1519,283.1,77,93,8.22,JP,1702254399
291,vadso,70.0744,29.7487,262.24,85,100,9.77,NO,1702254401
292,coahuayana de hidalgo,18.7,-103.6583,299.72,69,100,0.45,MX,1702254402
293,lunglei,22.8833,92.7333,282.84,96,3,1.42,IN,1702254403
294,carlisle,40.2015,-77.1889,282.17,90,100,0.89,US,1702254404
295,kertih,4.5141,103.4483,298.16,94,40,0.0,MY,1702254406
296,shanhaiguan,39.9988,119.7564,268.05,25,100,7.53,CN,1702254407
297,timaru,-44.4,171.25,293.75,48,13,3.13,NZ,1702254408
298,daru,-9.0763,143.2092,299.12,83,100,2.64,PG,1702254410
299,kolonia town,6.964,158.206,305.21,66,100,4.12,FM,1702254411
300,san julian,21.0167,-102.1667,290.89,47,81,2.3,MX,1702254412
301,geidam,12.897,11.9304,292.1,26,76,4.78,NG,1702254413
302,fada n'gourma,12.0622,0.3578,297.05,13,48,3.51,BF,1702254415
303,kerikeri,-35.2268,173.9474,294.45,58,94,1.78,NZ,1702254417
304,al jawf,29.5,38.75,292.01,43,100,4.11,SA,1702254419
305,pradera,3.4211,-76.2447,296.53,92,88,2.61,CO,1702254420
306,kaihua,23.3687,104.28,287.76,90,91,2.33,CN,1702254422
307,havre,49.5833,0.3333,284.02,82,0,9.26,FR,1702254423
308,hammerfest,70.6634,23.6821,266.93,81,97,7.17,NO,1702254424
309,gazojak,41.1875,61.4036,272.92,39,96,5.9,TM,1702254427
310,nova sintra,14.8667,-24.7167,296.09,76,99,3.49,CV,1702254428
311,mejit,10.2753,170.8646,300.38,72,91,9.02,MH,1702254430
312,palanga,55.9175,21.0686,272.16,93,100,5.14,LT,1702254432
313,amasra,41.7463,32.3863,282.9,79,70,2.15,TR,1702254434
314,woolgoolga,-30.1106,153.2007,300.08,59,25,5.12,AU,1702254435
315,mount isa,-20.7333,139.5,300.02,47,75,6.17,AU,1702254437
316,inca,39.7211,2.9109,286.72,88,47,2.35,ES,1702254438
317,bom jesus,-9.0744,-44.3586,298.58,74,88,1.29,BR,1702254440
318,taybad,34.74,60.7756,282.72,44,0,1.42,IR,1702254441
319,robore,-18.3333,-59.75,298.82,74,100,1.67,BO,1702254442
320,morehead city,34.7229,-76.726,293.18,88,100,7.72,US,1702254257
321,ocean shores,46.9737,-124.1563,283.16,98,100,2.57,US,1702254445
322,oamaru,-45.0784,170.9801,290.17,59,10,5.12,NZ,1702254446
323,kargil,34.5667,76.1,266.52,34,100,0.61,IN,1702254447
324,cabo san lucas,22.8909,-109.9124,301.32,45,0,5.14,MX,1702254176
325,dickinson,29.4608,-95.0513,285.99,42,0,4.12,US,1702254381
326,poolesville,39.1459,-77.4169,284.85,95,100,9.26,US,1702254452
327,port hedland,-20.3167,118.5667,301.18,15,10,11.32,AU,1702254453
328,kloulklubed,7.0419,134.2556,302.43,79,63,6.81,PW,1702254454
329,kupiskis,55.8333,24.9667,270.93,97,100,5.18,LT,1702254456
330,mersing,2.4312,103.8405,298.1,100,40,1.54,MY,1702254457
331,buka,40.8108,69.1986,276.56,60,100,1.73,UZ,1702254458
332,shagonar,51.5333,92.8,242.42,98,98,0.48,RU,1702254460
333,greymouth,-42.4667,171.2,287.9,59,69,4.48,NZ,1702254461
334,sidney,-33.8679,151.2073,305.14,68,40,5.14,AU,1702254420
335,tamandare,-8.7597,-35.1047,298.69,78,60,3.03,BR,1702254463
336,kishtwar,33.3167,75.7667,277.07,31,100,2.03,IN,1702254464
337,scarborough,54.2797,-0.4044,281.29,93,99,1.79,GB,1702254304
338,pyetrykaw,52.1289,28.4921,272.76,93,100,4.07,BY,1702254467
339,kidal,18.4411,1.4078,292.47,19,2,7.37,ML,1702254376
340,murghob,38.1702,73.9667,254.56,64,22,1.75,TJ,1702254469
341,gadzhiyevo,69.2551,33.3362,259.67,89,95,7.22,RU,1702254471
342,fisterra,42.9049,-9.2629,291.34,85,100,10.71,ES,1702254472
343,bubaque,11.2833,-15.8333,301.37,63,100,4.48,GW,1702254473
344,kapuskasing,49.4169,-82.4331,267.2,86,100,5.14,CA,1702254475
345,del rio,29.3627,-100.8968,288.21,24,0,1.54,US,1702254476
346,kamakwie,9.5,-12.2333,297.04,36,100,0.16,SL,1702254477
347,marka,1.7159,44.7717,299.38,84,39,6.05,SO,1702254478
348,ouadda,8.0777,22.4007,295.35,42,70,1.32,CF,1702254470
349,iskateley,67.6803,53.1512,250.38,91,99,4.92,RU,1702254481
350,portland,45.5234,-122.6762,285.98,94,100,2.68,US,1702254327
351,chengde,40.9725,117.9361,265.8,80,100,0.95,CN,1702254337
352,watertown,42.3709,-71.1828,289.82,91,100,8.23,US,1702254256
353,temiskaming shores,47.4938,-79.7153,269.04,78,98,3.73,CA,1702254487
354,ataq,14.5377,46.8319,287.65,32,5,1.55,YE,1702254488
355,erenhot,43.6475,111.9767,260.6,47,75,1.91,CN,1702254490
356,usinsk,65.9939,57.5281,244.3,100,100,0.45,RU,1702254491
357,hilo,19.7297,-155.09,299.4,99,100,2.57,US,1702254493
358,wad az zaki,14.4619,32.2065,297.59,17,5,3.98,SD,1702254494
359,sao vicente,-23.9631,-46.3919,297.19,49,100,3.58,BR,1702254495
360,zhalantun,48.0,122.7167,245.59,88,5,2.6,CN,1702254496
361,bonthe,7.5264,-12.505,299.95,81,62,2.8,SL,1702254498
362,destin,30.3935,-86.4958,285.15,78,0,5.66,US,1702254276
363,boden,65.8252,21.6886,265.15,99,97,0.44,SE,1702254501
364,solnechnyy,50.7214,136.6319,249.83,85,15,1.37,RU,1702254502
365,teknaf,20.8624,92.3058,291.05,83,41,2.98,BD,1702254504
366,port alfred,-33.5906,26.891,289.92,94,33,1.51,ZA,1702254506
367,polyarnyy,69.1989,33.4478,260.53,88,95,7.51,RU,1702254507
368,moree,-29.4667,149.85,301.81,33,0,5.23,AU,1702254509
369,kwaksan,39.6875,125.0828,274.07,40,89,3.48,KP,1702254512
370,namtsy,62.7161,129.6658,243.22,89,100,4.58,RU,1702254513
371,arua,3.0201,30.9111,291.81,78,86,0.55,UG,1702254515
372,sault ste. marie,46.5168,-84.3333,272.05,78,75,2.57,CA,1702254309
373,magadan,59.5667,150.8,270.67,87,92,8.12,RU,1702254520
374,sept-iles,50.2001,-66.3821,275.44,98,100,2.57,CA,1702254522
375,lamu,-2.2717,40.902,299.27,85,35,3.8,KE,1702254524
376,poronaysk,49.2167,143.1167,258.24,73,28,4.05,RU,1702254526
377,mambajao,9.2504,124.7156,300.03,81,91,3.71,PH,1702254528
378,den burg,53.0542,4.7972,283.71,88,100,7.72,NL,1702254532
379,sa pa,22.3402,103.8441,286.36,87,22,0.62,VN,1702254533
380,acarau,-2.8856,-40.12,299.99,76,47,7.17,BR,1702254535
381,chegdomyn,51.1167,133.0167,245.42,91,76,0.94,RU,1702254536
382,laungowal,30.2167,75.6833,285.37,27,33,0.32,IN,1702254537
383,belmonte,-15.8631,-38.8828,297.94,85,3,2.88,BR,1702254538
384,lumut,4.2323,100.6298,299.16,89,20,0.51,MY,1702254540
385,hantsavichy,52.758,26.43,271.65,97,100,5.04,BY,1702254541
386,rouissat,31.9243,5.3502,283.19,53,0,1.54,DZ,1702254542
387,businga,3.3333,20.8833,295.52,86,92,0.62,CD,1702254544
388,dongola,19.1667,30.4833,293.99,21,51,3.42,SD,1702254545
389,ondjiva,-17.0667,15.7333,296.17,68,0,2.06,AO,1702254546
390,cooma,-36.2333,149.1333,297.28,58,100,3.33,AU,1702254547
391,springbok,-29.6643,17.8865,288.51,44,0,2.29,ZA,1702254548
392,abu zabad,12.35,29.25,295.6,16,37,3.89,SD,1702254550
393,vilyuysk,63.7553,121.6247,243.73,97,100,3.23,RU,1702254551
394,komatsu,36.4026,136.4509,283.14,76,40,9.77,JP,1702254552
395,bar,49.0772,27.6826,272.47,94,100,3.81,UA,1702254554
396,flying fish cove,-10.4217,105.6791,298.97,78,75,4.63,CX,1702254556
397,dimbokro,6.6451,-4.7048,297.67,89,59,1.7,CI,1702254557
398,akure,7.2526,5.1931,295.83,65,25,0.84,NG,1702254559
399,adrar,20.5022,-10.0711,291.03,21,47,6.14,MR,1702254561
400,upington,-28.4478,21.2561,294.36,30,0,3.09,ZA,1702254563
401,amir timur,41.0194,68.9408,277.82,55,100,1.5,UZ,1702254564
402,nemuro,43.3236,145.575,273.25,51,20,6.39,JP,1702254566
403,new plymouth,-39.0667,174.0833,289.44,82,100,2.71,NZ,1702254567
404,beledweyne,4.7358,45.2036,298.89,72,10,5.78,SO,1702254568
405,karlovo,42.6333,24.8,273.82,94,90,1.06,BG,1702254569
406,ixtapa,20.7,-105.2,299.72,78,100,2.06,MX,1702254570
407,sao jose da coroa grande,-8.8978,-35.1478,298.84,78,53,3.23,BR,1702254571
408,monte santo,-10.4378,-39.3328,298.07,57,8,5.41,BR,1702254572
409,gobabis,-22.45,18.9667,293.99,29,0,4.09,NA,1702254574
410,east london,-33.0153,27.9116,289.61,77,94,2.28,ZA,1702254575
411,mora,11.0461,14.1401,292.61,32,0,2.23,CM,1702254576
412,hasaki,35.7333,140.8333,287.2,66,100,1.43,JP,1702254578
413,murashi,59.3999,48.9615,250.97,95,100,3.46,RU,1702254579
414,jinchang,38.4953,102.1739,271.16,48,100,2.58,CN,1702254580
415,pauillac,45.1964,-0.7487,289.36,86,100,7.95,FR,1702254581
416,cervera,41.67,1.2721,285.56,92,94,3.04,ES,1702254582
417,darwin,-12.4611,130.8418,304.2,75,75,5.66,AU,1702254583
418,puerto colombia,10.9878,-74.9547,300.2,86,8,8.84,CO,1702254584
419,baiti,13.745,-14.7482,299.37,15,65,3.47,SN,1702254403
420,luderitz,-26.6481,15.1594,290.34,68,1,8.61,NA,1702254588
421,nakhon thai,17.1006,100.8374,295.91,91,5,0.91,TH,1702254589
422,montevideo,-34.8335,-56.1674,292.99,83,0,4.12,UY,1702254590
423,tomatlan,19.9333,-105.25,299.09,65,90,0.83,MX,1702254591
424,mawlaik,23.6333,94.4167,290.45,94,37,0.9,MM,1702254592
425,raja,8.4596,25.678,297.63,23,95,1.07,SS,1702254593
426,praia da vitoria,38.7333,-27.0667,290.79,82,0,6.12,PT,1702254594
427,chita,52.0333,113.55,236.09,61,11,1.0,RU,1702254595
428,san luis de la loma,17.2706,-100.8939,300.03,75,100,1.4,MX,1702254596
429,aden,12.7794,45.0367,298.66,70,1,6.48,YE,1702254598
430,huanggang,23.677,116.9996,294.09,85,44,0.36,CN,1702254599
431,franklin,39.9667,-83.0166,275.5,83,100,5.14,US,1702254600
432,charlestown,-32.95,151.6667,302.97,67,5,1.34,AU,1702254483
433,hualien city,23.9769,121.6044,299.43,75,38,1.18,TW,1702254605
434,red hill,33.9996,-79.2581,292.25,87,100,5.18,US,1702254606
435,portel,-1.9356,-50.8211,300.19,76,99,2.6,BR,1702254609
436,alice springs,-23.7,133.8833,289.9,48,100,4.96,AU,1702254610
437,korla,41.7597,86.1469,268.84,63,13,0.85,CN,1702254611
438,north platte,41.1239,-100.7654,277.25,40,0,2.06,US,1702254612
439,millau,44.0833,2.9167,286.22,98,100,1.64,FR,1702254613
440,akureyri,65.6835,-18.0878,260.11,85,0,1.03,IS,1702254615
441,pimentel,-6.8367,-79.9342,295.31,73,0,8.75,PE,1702254616
442,vila velha,-20.3297,-40.2925,298.12,83,75,1.54,BR,1702254441
443,sanya,18.2431,109.505,296.24,88,0,2.0,CN,1702254618
444,ekibastuz,51.6667,75.3667,249.28,98,99,2.73,KZ,1702254619
445,childersburg,33.2782,-86.355,281.54,64,100,2.06,US,1702254621
446,zhenzhou,32.2692,119.1789,279.76,87,100,7.47,CN,1702254622
447,at-bashi,41.1702,75.8106,262.41,61,13,0.98,KG,1702254623
448,la plata,-34.9215,-57.9545,296.94,73,26,3.47,AR,1702254600
449,aflou,34.1128,2.1023,282.39,48,1,2.67,DZ,1702254626
450,mo i rana,66.3128,14.1428,269.41,58,100,3.09,NO,1702254627
451,orchard homes,46.8633,-114.0484,275.15,93,100,0.45,US,1702254628
452,sola,-13.8833,167.55,299.53,72,100,9.65,VU,1702254629
453,lazaro cardenas,17.9583,-102.2,299.91,70,100,0.96,MX,1702254463
454,cold lake,54.4502,-110.2017,270.12,80,100,4.12,CA,1702254341
455,ko pha ngan,9.7578,100.0291,297.53,75,20,1.46,TH,1702254427
456,guantanamo,20.1444,-75.2092,300.91,86,67,1.54,CU,1702254520
457,heroica caborca,30.7167,-112.15,290.3,14,0,3.72,MX,1702254635
458,chandbali,20.7833,86.7667,289.68,51,0,2.72,IN,1702254636
459,fale old settlement,-9.3852,-171.2468,301.82,78,95,6.31,TK,1702254637
460,whangarei,-35.7317,174.3239,295.8,40,38,2.4,NZ,1702254638
461,porto novo,6.4965,2.6036,301.05,83,0,1.86,BJ,1702254639
462,inari,68.906,27.0288,259.26,91,100,4.44,FI,1702254641
463,amga,60.8953,131.9608,245.86,91,100,3.68,RU,1702254642
464,dadeldhura,29.2984,80.5806,275.78,61,2,1.7,NP,1702254644
465,sarina,-21.4333,149.2167,297.19,1,100,8.76,AU,1702254645
466,maffra,-37.9667,146.9833,292.84,92,100,1.75,AU,1702254647
467,pugachev,52.0133,48.8025,258.51,87,17,4.45,RU,1702254648
468,greenland,43.0362,-70.8328,289.34,97,100,4.12,US,1702254649
469,ripley,53.0333,-1.4,284.25,88,100,2.24,GB,1702254650
470,nova vicosa,-17.8919,-39.3719,297.89,84,5,3.17,BR,1702254651
471,arkhangel'sk,64.5401,40.5433,257.21,77,75,5.0,RU,1702254652
472,fiambala,-27.6871,-67.6149,294.98,59,49,2.08,AR,1702254653
473,collie,-33.3667,116.15,295.97,22,0,4.36,AU,1702254655
474,piti village,13.4626,144.6933,303.18,78,75,6.17,GU,1702254656
475,sawakin,19.1059,37.3321,299.54,72,34,0.75,SD,1702254657
476,xai-xai,-25.0519,33.6442,297.02,93,61,4.03,MZ,1702254658
477,saint-gaudens,43.0833,0.6667,283.72,73,100,2.7,FR,1702254659
478,tamanrasset,22.785,5.5228,286.1,26,0,3.6,DZ,1702254547
479,visby,57.6409,18.296,274.27,100,100,5.66,SE,1702254556
480,almeirim,-1.5233,-52.5817,300.23,72,66,2.1,BR,1702254662
481,castillos,-34.1667,-53.8333,288.82,96,5,2.31,UY,1702254663
482,masvingo,-20.0637,30.8277,292.6,89,99,3.72,ZW,1702254665
483,neelankarai,12.9455,80.2575,298.18,88,40,1.03,IN,1702254666
484,olyokminsk,60.3736,120.4264,246.09,92,100,3.02,RU,1702254667
485,egilsstadir,65.2653,-14.3948,267.1,100,100,0.51,IS,1702254668
486,aral,40.5156,81.2636,269.69,54,75,3.78,CN,1702254669
487,ouesso,1.6136,16.0517,297.01,85,100,0.83,CG,1702254670
488,essaouira,31.5125,-9.77,289.87,36,100,1.54,MA,1702254672
489,mili,6.0815,171.735,300.51,85,100,7.23,MH,1702254673
490,antalaha,-14.9003,50.2788,296.37,89,85,2.41,MG,1702254675
491,la passe,45.5549,-0.8967,289.28,88,100,10.74,FR,1702254676
492,acapulco de juarez,16.8634,-99.8901,302.05,79,75,1.54,MX,1702254677
493,tanumah,27.1,44.1333,291.56,26,100,3.48,SA,1702254679
494,herentals,51.1764,4.8276,284.4,88,79,0.89,BE,1702254681
495,howard springs,-12.497,131.047,303.7,91,12,2.32,AU,1702254682
496,dharchula,29.85,80.5333,281.51,20,6,3.36,IN,1702254684
497,weno,7.4515,151.8468,303.12,74,75,4.12,FM,1702254685
498,karratha,-20.7377,116.8463,302.21,18,6,10.11,AU,1702254687
499,port moresby,-9.4431,147.1797,303.83,66,40,5.14,PG,1702254688
500,nejo,9.5,35.5,287.99,55,98,0.53,ET,1702254690
501,vila franca do campo,37.7167,-25.4333,291.42,99,100,4.65,PT,1702254691
502,fauske,67.2588,15.3918,270.17,83,59,3.8,NO,1702254693
503,preobrazheniye,42.9019,133.9064,263.36,41,100,2.45,RU,1702254694
504,saudarkrokur,65.7461,-19.6394,270.57,88,100,4.7,IS,1702254696
505,es senia,35.6478,-0.624,284.14,82,0,2.57,DZ,1702254697
506,pangody,65.85,74.4859,240.43,97,91,3.89,RU,1702254520
507,niquero,20.0431,-77.5828,299.4,82,0,3.74,CU,1702254700
508,reggane,26.7158,0.1714,288.33,45,0,5.37,DZ,1702254701
509,trairi,-3.2778,-39.2689,299.97,71,76,5.33,BR,1702254533
510,pingxiang,27.6167,113.85,283.16,91,99,2.33,CN,1702254704
511,sabratah,32.7933,12.4885,287.84,61,0,6.0,LY,1702254706
512,igarka,67.4667,86.5833,243.21,98,100,2.45,RU,1702254707
513,mhamid,29.82,-5.72,288.94,36,11,2.02,MA,1702254708
514,el granada,37.5027,-122.4694,288.16,65,0,2.24,US,1702254709
515,griffith,41.5284,-87.4237,274.11,78,100,5.66,US,1702254711
516,itamaraca,-7.7478,-34.8256,301.18,73,63,2.14,BR,1702254712
517,dazuocun,24.8862,118.9643,294.01,77,100,2.46,CN,1702254714
518,derzhavinsk,51.1,66.3167,245.89,94,55,5.69,KZ,1702254715
519,sigli,5.3848,95.9609,300.2,78,85,0.93,ID,1702254717
520,dryden,49.7833,-92.7503,267.31,86,100,2.06,CA,1702254718
521,hohhot,40.8106,111.6522,271.31,93,20,1.0,CN,1702254719
522,bacobampo,26.9833,-109.65,298.4,36,0,6.14,MX,1702254722
523,callao,-12.0667,-77.15,296.33,77,75,5.14,PE,1702254724
524,piacabucu,-10.4056,-36.4344,298.52,75,0,3.94,BR,1702254725
525,buncrana,55.1333,-7.45,279.62,94,100,1.2,IE,1702254728
526,aioi,34.8036,134.4681,287.32,69,10,4.49,JP,1702254729
527,conception bay south,47.4999,-52.9981,271.89,92,57,3.8,CA,1702254505
528,as sulayyil,20.4607,45.5779,286.29,29,52,2.23,SA,1702254469
529,kavaratti,10.5669,72.642,301.71,72,100,2.81,IN,1702254733
530,chuhar jamali,24.3895,67.9923,292.37,67,3,2.94,PK,1702254735
531,filadelfia,39.9523,-75.1638,290.46,94,100,6.69,US,1702254733
532,cascais,38.6979,-9.4215,290.34,97,9,4.02,PT,1702254737
533,badger,64.8,-147.5333,248.35,73,0,1.54,US,1702254364
534,fort st. john,56.2499,-120.8529,269.09,74,40,2.57,CA,1702254740
535,neftcala,39.3742,49.2472,283.95,78,78,7.78,AZ,1702254742
536,tazacorte,28.629,-17.9293,294.9,41,0,4.02,ES,1702254744
537,prince rupert,54.3161,-130.3201,278.98,79,0,7.2,CA,1702254746
538,kindu,-2.95,25.95,293.62,99,100,0.74,CD,1702254747
539,itoman,26.1247,127.6694,297.58,80,75,2.06,JP,1702254748
540,princeton,25.5384,-80.4089,299.16,89,75,1.54,US,1702254674
541,fontanelas,38.8472,-9.4372,289.59,96,6,3.06,PT,1702254751
542,brisas barra de suchiate,14.55,-92.2167,301.25,74,34,1.87,MX,1702254752
543,bloomfield,40.8068,-74.1854,290.71,87,100,6.69,US,1702254753
544,general acha,-37.377,-64.6043,298.07,25,0,7.82,AR,1702254755
545,pandan,14.0453,124.1694,301.52,79,68,4.69,PH,1702254756
546,kingscliff,-28.2667,153.5667,302.44,54,75,5.14,AU,1702254758
547,yantzaza,-3.8278,-78.7594,293.68,99,53,0.32,EC,1702254760
548,mossendjo,-2.9506,12.7261,294.41,100,100,1.05,CG,1702254544
549,port blair,11.6667,92.75,298.17,94,20,1.03,IN,1702254569
550,gombong,-7.6072,109.5142,301.01,73,29,2.28,ID,1702254765
551,astrakhan,46.3497,48.0408,267.08,62,100,7.15,RU,1702254767
552,shimoda,34.6667,138.95,288.76,61,100,3.7,JP,1702254768
553,salym,60.0625,71.4789,240.95,98,8,1.68,RU,1702254770
554,newport,51.5877,-2.9984,284.45,88,93,13.89,GB,1702254632
555,puerto leguizamo,-0.1934,-74.7819,296.2,96,7,1.19,CO,1702254773
556,rikaze,29.25,88.8833,269.61,39,0,2.01,CN,1702254774
557,saint-joseph,-21.3667,55.6167,296.36,85,46,4.59,RE,1702254776
558,oyo,7.85,3.9333,296.04,48,7,0.24,NG,1702254777
559,tsengel,49.4783,100.8894,251.46,93,100,0.63,MN,1702254778
560,kuala belait,4.5833,114.1833,298.24,80,100,1.35,BN,1702254780
561,rawson,-43.3002,-65.1023,294.99,37,38,10.61,AR,1702254567
562,dwarka,22.2394,68.9678,295.01,51,5,2.34,IN,1702254782
563,kokstad,-30.5472,29.4241,284.27,98,100,1.43,ZA,1702254785
564,tevriz,57.509,72.4042,243.44,96,14,2.67,RU,1702254787
